[
  {
    "name": "Glen Innes",
    "area": "Auckland",
    "latLong": {
      "lon": 174.85524499999997,
      "lat": -36.8773484
    }
  },
  {
    "name": "Henderson",
    "area": "Auckland",
    "latLong": {
      "lon": 174.63316989999998,
      "lat": -36.8825277
    }
  },
  {
    "name": "Panmure",
    "area": "Auckland",
    "latLong": {
      "lon": 174.85457350000001,
      "lat": -36.899429
    }
  },
  {
    "name": "Mount Roskill",
    "area": "Auckland",
    "latLong": {
      "lon": 174.7418404,
      "lat": -36.9035989
    }
  },
  {
    "name": "Onehunga",
    "area": "Auckland",
    "latLong": {
      "lon": 174.78593,
      "lat": -36.9226193
    }
  },
  {
    "name": "Otahuhu",
    "area": "Auckland",
    "latLong": {
      "lon": 174.84047839999994,
      "lat": -36.9413257
    }
  },
  {
    "name": "Otara",
    "area": "Auckland",
    "latLong": {
      "lon": 174.87354879999998,
      "lat": -36.9608041
    }
  },
  {
    "name": "Manukau",
    "area": "Auckland",
    "latLong": {
      "lon": 174.88046580000002,
      "lat": -36.9866757
    }
  },
  {
    "name": "Takanini",
    "area": "Auckland",
    "latLong": {
      "lon": 174.90007879999996,
      "lat": -37.0252987
    }
  },
  {
    "name": "Papakura",
    "area": "Auckland",
    "latLong": {
      "lon": 174.94551460000002,
      "lat": -37.0641686
    }
  },
  {
    "name": "Pukekohe",
    "area": "Auckland",
    "latLong": {
      "lon": 174.90409279999994,
      "lat": -37.19981730000001
    }
  },
  {
    "name": "Tauranga",
    "area": "Bay of Plenty",
    "latLong": {
      "lon": 176.16916070000002,
      "lat": -37.688189
    }
  },
  {
    "name": "Hamilton East",
    "area": "Waikato",
    "latLong": {
      "lon": 175.2939867,
      "lat": -37.7727176
    }
  },
  {
    "name": "Hamilton Central",
    "area": "Waikato",
    "latLong": {
      "lon": 175.27843499999994,
      "lat": -37.7845794
    }
  },
  {
    "name": "Rotorua",
    "area": "Bay of Plenty",
    "latLong": {
      "lon": 176.25191510000002,
      "lat": -38.1370796
    }
  },
  {
    "name": "New Plymouth",
    "area": "Taranaki",
    "latLong": {
      "lon": 174.07830680000006,
      "lat": -39.0562885
    }
  },
  {
    "name": "Hastings",
    "area": "Hawkes Bay",
    "latLong": {
      "lon": 176.83338200000003,
      "lat": -39.63251899999999
    }
  },
  {
    "name": "Wanganui",
    "area": "Manawatu-Wanganui",
    "latLong": {
      "lon": 175.048041,
      "lat": -39.930739
    }
  },
  {
    "name": "Palmerston North",
    "area": "Manawatu-Wanganui",
    "latLong": {
      "lon": 175.6137122,
      "lat": -40.3547088
    }
  },
  {
    "name": "Porirua",
    "area": "Wellington",
    "latLong": {
      "lon": 174.83952720000002,
      "lat": -41.1298946
    }
  },
  {
    "name": "Lower Hutt",
    "area": "Wellington",
    "latLong": {
      "lon": 174.90479949999997,
      "lat": -41.2091207
    }
  },
  {
    "name": "Linwood",
    "area": "Christchurch",
    "latLong": {
      "lon": 172.6732809,
      "lat": -43.5327557
    }
  },
  {
    "name": "Dunedin South",
    "area": "Otago",
    "latLong": {
      "lon": 170.49908500000004,
      "lat": -45.8939078
    }
  }
]
